{
"type": "FeatureCollection",
"crs": { "type": "name", "properties": { "name": "urn:ogc:def:crs:OGC:1.3:CRS84" } },
"features": [
{ "type": "Feature", "properties": { "name": "Apalachia", "url": "https://www.tva.gov/Environment/Lake-Levels/Apalachia", "latitude": 35.16785559, "longitude": -84.29546816 }, "geometry": { "type": "Point", "coordinates": [ -84.29546816, 35.16785559 ] } },
{ "type": "Feature", "properties": { "name": "Blue Ridge", "url": "https://www.tva.gov/Environment/Lake-Levels/Blue-Ridge", "latitude": 34.88287803, "longitude": -84.28041607 }, "geometry": { "type": "Point", "coordinates": [ -84.28041607, 34.88287803 ] } },
{ "type": "Feature", "properties": { "name": "Boone", "url": "https://www.tva.gov/Environment/Lake-Levels/Boone", "latitude": 36.44024062, "longitude": -82.43811087 }, "geometry": { "type": "Point", "coordinates": [ -82.43811087, 36.44024062 ] } },
{ "type": "Feature", "properties": { "name": "Chatuge", "url": "https://www.tva.gov/Environment/Lake-Levels/Chatuge", "latitude": 35.01771412, "longitude": -83.79130302 }, "geometry": { "type": "Point", "coordinates": [ -83.79130302, 35.01771412 ] } },
{ "type": "Feature", "properties": { "name": "Cherokee", "url": "https://www.tva.gov/Environment/Lake-Levels/Cherokee", "latitude": 36.16662796, "longitude": -83.49815305 }, "geometry": { "type": "Point", "coordinates": [ -83.49815305, 36.16662796 ] } },
{ "type": "Feature", "properties": { "name": "Chickamauga", "url": "https://www.tva.gov/Environment/Lake-Levels/Chickamauga", "latitude": 35.10467134, "longitude": -85.22908444 }, "geometry": { "type": "Point", "coordinates": [ -85.22908444, 35.10467134 ] } },
{ "type": "Feature", "properties": { "name": "Douglas", "url": "https://www.tva.gov/Environment/Lake-Levels/Douglas", "latitude": 35.96122029, "longitude": -83.53842021 }, "geometry": { "type": "Point", "coordinates": [ -83.53842021, 35.96122029 ] } },
{ "type": "Feature", "properties": { "name": "Fontana", "url": "https://www.tva.gov/Environment/Lake-Levels/Fontana", "latitude": 35.45259921, "longitude": -83.80477306 }, "geometry": { "type": "Point", "coordinates": [ -83.80477306, 35.45259921 ] } },
{ "type": "Feature", "properties": { "name": "Fort Loudoun", "url": "https://www.tva.gov/Environment/Lake-Levels/Fort-Loudoun", "latitude": 35.79149011, "longitude": -84.2427719 }, "geometry": { "type": "Point", "coordinates": [ -84.2427719, 35.79149011 ] } },
{ "type": "Feature", "properties": { "name": "Fort Patrick Henry", "url": "https://www.tva.gov/Environment/Lake-Levels/Fort-Patrick-Henry", "latitude": 36.49794857, "longitude": -82.5087622 }, "geometry": { "type": "Point", "coordinates": [ -82.5087622, 36.49794857 ] } },
{ "type": "Feature", "properties": { "name": "Great Falls", "url": "https://www.tva.gov/Environment/Lake-Levels/Great-Falls", "latitude": 35.80202813, "longitude": -85.62208394 }, "geometry": { "type": "Point", "coordinates": [ -85.62208394, 35.80202813 ] } },
{ "type": "Feature", "properties": { "name": "Guntersville", "url": "https://www.tva.gov/Environment/Lake-Levels/Guntersville", "latitude": 34.42367321, "longitude": -86.39221989000001 }, "geometry": { "type": "Point", "coordinates": [ -86.39221989, 34.42367321 ] } },
{ "type": "Feature", "properties": { "name": "Hiwassee", "url": "https://www.tva.gov/Environment/Lake-Levels/Hiwassee", "latitude": 35.15152031, "longitude": -84.17756196000001 }, "geometry": { "type": "Point", "coordinates": [ -84.17756196, 35.15152031 ] } },
{ "type": "Feature", "properties": { "name": "Kentucky", "url": "https://www.tva.gov/Environment/Lake-Levels/Kentucky", "latitude": 37.01249832, "longitude": -88.27010506000001 }, "geometry": { "type": "Point", "coordinates": [ -88.27010506, 37.01249832 ] } },
{ "type": "Feature", "properties": { "name": "Melton Hill", "url": "https://www.tva.gov/Environment/Lake-Levels/Melton-Hill", "latitude": 35.88569215, "longitude": -84.29992221000001 }, "geometry": { "type": "Point", "coordinates": [ -84.29992221, 35.88569215 ] } },
{ "type": "Feature", "properties": { "name": "Nickajack", "url": "https://www.tva.gov/Environment/Lake-Levels/Nickajack", "latitude": 35.00360192, "longitude": -85.61967979000001 }, "geometry": { "type": "Point", "coordinates": [ -85.61967979, 35.00360192 ] } },
{ "type": "Feature", "properties": { "name": "Normandy", "url": "https://www.tva.gov/Environment/Lake-Levels/Normandy", "latitude": 35.46539488, "longitude": -86.24670601 }, "geometry": { "type": "Point", "coordinates": [ -86.24670601, 35.46539488 ] } },
{ "type": "Feature", "properties": { "name": "Norris", "url": "https://www.tva.gov/Environment/Lake-Levels/Norris", "latitude": 36.22406974, "longitude": -84.09263395000001 }, "geometry": { "type": "Point", "coordinates": [ -84.09263395, 36.22406974 ] } },
{ "type": "Feature", "properties": { "name": "Nottely", "url": "https://www.tva.gov/Environment/Lake-Levels/Nottely", "latitude": 34.95823501, "longitude": -84.08831949 }, "geometry": { "type": "Point", "coordinates": [ -84.08831949, 34.95823501 ] } },
{ "type": "Feature", "properties": { "name": "Ocoee No. 1", "url": "https://www.tva.gov/Environment/Lake-Levels/Ocoee-1", "latitude": 35.094212, "longitude": -84.64757259 }, "geometry": { "type": "Point", "coordinates": [ -84.64757259, 35.094212 ] } },
{ "type": "Feature", "properties": { "name": "Ocoee No. 2", "url": "https://www.tva.gov/Environment/Lake-Levels/Ocoee-2", "latitude": 35.08270324, "longitude": -84.49118989 }, "geometry": { "type": "Point", "coordinates": [ -84.49118989, 35.08270324 ] } },
{ "type": "Feature", "properties": { "name": "Ocoee No. 3", "url": "https://www.tva.gov/Environment/Lake-Levels/Ocoee-3", "latitude": 35.04067551, "longitude": -84.46680698 }, "geometry": { "type": "Point", "coordinates": [ -84.46680698, 35.04067551 ] } },
{ "type": "Feature", "properties": { "name": "Pickwick Landing", "url": "https://www.tva.gov/Environment/Lake-Levels/Pickwick", "latitude": 35.06863551, "longitude": -88.24976635 }, "geometry": { "type": "Point", "coordinates": [ -88.24976635, 35.06863551 ] } },
{ "type": "Feature", "properties": { "name": "Raccoon Mountain", "url": "https://www.tva.gov/Environment/Lake-Levels/Raccoon-Mountain", "latitude": 35.04854656, "longitude": -85.40537789 }, "geometry": { "type": "Point", "coordinates": [ -85.40537789, 35.04854656 ] } },
{ "type": "Feature", "properties": { "name": "South Holston", "url": "https://www.tva.gov/Environment/Lake-Levels/South-Holston", "latitude": 36.52401819, "longitude": -82.08850001 }, "geometry": { "type": "Point", "coordinates": [ -82.08850001, 36.52401819 ] } },
{ "type": "Feature", "properties": { "name": "Tims Ford", "url": "https://www.tva.gov/Environment/Lake-Levels/Tims-Ford", "latitude": 35.19683951, "longitude": -86.27855067 }, "geometry": { "type": "Point", "coordinates": [ -86.27855067, 35.19683951 ] } },
{ "type": "Feature", "properties": { "name": "Watauga", "url": "https://www.tva.gov/Environment/Lake-Levels/Watauga", "latitude": 36.32297953, "longitude": -82.12259996 }, "geometry": { "type": "Point", "coordinates": [ -82.12259996, 36.32297953 ] } },
{ "type": "Feature", "properties": { "name": "Watts Bar", "url": "https://www.tva.gov/Environment/Lake-Levels/Watts-Bar", "latitude": 35.62117864, "longitude": -84.78216649 }, "geometry": { "type": "Point", "coordinates": [ -84.78216649, 35.62117864 ] } },
{ "type": "Feature", "properties": { "name": "Wheeler", "url": "https://www.tva.gov/Environment/Lake-Levels/Wheeler", "latitude": 34.80643207, "longitude": -87.38188415 }, "geometry": { "type": "Point", "coordinates": [ -87.38188415, 34.80643207 ] } },
{ "type": "Feature", "properties": { "name": "Wilbur ", "url": "https://www.tva.gov/Environment/Lake-Levels/Wilbur ", "latitude": 36.34122533, "longitude": -82.12638619000001 }, "geometry": { "type": "Point", "coordinates": [ -82.12638619, 36.34122533 ] } },
{ "type": "Feature", "properties": { "name": "Wilson", "url": "https://www.tva.gov/Environment/Lake-Levels/Wilson", "latitude": 34.79996832, "longitude": -87.62551396000001 }, "geometry": { "type": "Point", "coordinates": [ -87.62551396, 34.79996832 ] } }
]
}
